{"214334866": {"lat": 40.7127281, "lon": -74.0060152, "address": "New York City, New York, USA", "count": 1}, "223407120": {"lat": -17.68726225, "lon": -149.445072275564, "address": "Tahiti, Teva I Uta, Windward Islands, French Polynesia, 98726, France", "count": 3}, "223154536": {"lat": 4.4137155, "lon": 114.5653908, "address": "Brunei", "count": 5}, "223554415": {"lat": -7.7847888, "lon": 110.496194662999, "address": "Prambanan, Sleman Regency, Special Region of Yogyakarta, 55572, Indonesia", "count": 1}, "223530969": {"lat": 33.8959203, "lon": 35.47843, "address": "Beirut, Ras Beirut, Beirut Governorate, Lebanon", "count": 1}, "364146": {"lat": 46.0962876, "lon": -115.8070835, "address": "Tahoe, Idaho County, Idaho, United States of America", "count": 1}, "162894": {"lat": 58.9680427, "lon": 5.7324722, "address": "Stavanger, Rogaland, 4006, Norway", "count": 1}, "223082539": {"lat": 35.6828387, "lon": 139.7594549, "address": "Tokyo, Japan", "count": 1}, "44558343": {"lat": -30.3968373, "lon": 137.9033629, "address": "Ediacara, Witchelina, Pastoral Unincorporated Area, South Australia, 5731, Australia", "count": 1}, "160411155": {"lat": -77.8451733, "lon": 166.672239589851, "address": "MCC - Post Office - Central Supply Information, 140, McMurdo - Scott Base Road, McMurdo Station", "count": 1}, "222956110": {"lat": 64.9841821, "lon": -18.1059013, "address": "Iceland", "count": 1}, "100040": {"lat": 51.5073219, "lon": -0.1276474, "address": "London, Greater London, England, SW1A 2DX, United Kingdom", "count": 1}}